[{"lon":-120.761719,"lat":37.45393,"val":7,"name":"Central"},{"lon":-121.47583,"lat":38.557616,"val":3,"name":"Sac"},
{"lon":-122.409668,"lat":37.771583,"val":50,"name":"SF"},{"lon":-122.706299,"lat":38.43724,"val":35,"name":"Santa Rosa"},
{"lon":-121.893311,"lat":37.336098,"val":10,"name":"San Jose"},
{"lon":-58.381667,"lat":-34.603333,"val":25,"name":"Buenos Aires"},
{"lon":121.633333,"lat":25.033333,"val":15,"name":"Taipei"},{"lon":134.121094,"lat":33.727995,"val":11,"name":"Japan"},
{"lon":29.047852,"lat":41.049531,"val":22,"name":"Istanbul"},
{"lon":-73.916016,"lat":40.787197,"val":18,"name":"NYC"}]